{
	"할리스 연신내점": { "name":"할리스 연신내점", "class":"hollys", "area":"은평구", "lat":37.617136, "lng":126.919693, "contact":"02-388-3977", "address":"서울시 은평구 대조동 199-28", "img":"http://admin.hollys.co.kr/upload/branch/store_201606140435158310.jpg"},
	"할리스 건대일감호수점": { "name":"할리스 건대일감호수점", "class":"hollys", "area":"광진구", "lat":37.539161, "lng":127.075555, "contact":"02-456-6627", "address":"서울시 광진구 자양동 225-74 ", "img":""},
	"할리스 안암오거리점": { "name":"할리스 안암오거리점", "class":"hollys", "area":"성북구", "lat":37.583626, "lng":127.0293, "contact":"02-922-2877", "address":"서울시 성북구 안암동5가 104-121", "img":"http://admin.hollys.co.kr/upload/branch/store_201506251034153540.jpg"},
	"할리스 노원문화의거리점": { "name":"할리스 노원문화의거리점", "class":"hollys", "area":"노원구", "lat":37.655852, "lng":127.063961, "contact":"02-935-8231", "address":"서울시 노원구 상계동 332-1", "img":"http://admin.hollys.co.kr/upload/branch/store_201504070606223520.JPG"},
	"할리스 도곡점": { "name":"할리스 도곡점", "class":"hollys", "area":"강남구", "lat":37.484489, "lng":127.046183, "contact":"02-6204-3311", "address":"서울시 강남구 도곡동 422-2", "img":""},
	"탐앤탐스 DMC 탐스커버리점": { "name":"탐앤탐스 DMC 탐스커버리점", "class":"tomntoms", "area":"은평구", "lat":37.583611, "lng":126.893274, "contact":"02-6925-0108", "address":"서울특별시 은평구 수색로 195", "img":"https://www.tomntoms.com/upload/store_image/C04689/0.99729700_1453339909.jpg"},
	"탐앤탐스 가로수길점": { "name":"탐앤탐스 가로수길점", "class":"tomntoms", "area":"강남구", "lat":37.518987, "lng":127.02276, "contact":"02-545-5789", "address":"서울특별시 강남구 강남대로156길48(신사동) [1.2층]", "img":"https://www.tomntoms.com/upload/store_image/C04657/0.83838000_1453335421.JPG"},
	"탐앤탐스 강남구청역사거리점": { "name":"탐앤탐스 강남구청역사거리점", "class":"tomntoms", "area":"강남구", "lat":37.517614, "lng":127.039639, "contact":"02-516-4565", "address":"서울특별시 강남구 선릉로131길16(논현동) [1층]", "img":"https://www.tomntoms.com/upload/store_image/C04755/0.75737200_1453335587.jpg"},
	"탐앤탐스 강남바로세움점": { "name":"탐앤탐스 강남바로세움점", "class":"tomntoms", "area":"서초구", "lat":37.501975, "lng":127.024447, "contact":"02-532-0620", "address":"서울특별시 서초구 서초대로77길 55        [1층]", "img":"https://www.tomntoms.com/upload/store_image/C04783/0.75779000_1453335776.jpg"},
	"탐앤탐스 강남역사거리점": { "name":"탐앤탐스 강남역사거리점", "class":"tomntoms", "area":"서초구", "lat":37.499378, "lng":127.025809, "contact":"02-533-2211", "address":"서울특별시 서초구 서초대로77길 19 [1,2층]", "img":"https://www.tomntoms.com/upload/store_image/C04871/0.23974100_1453336986.jpg"}
}
