{
  "할리스 연신내점": { "name":"할리스 연신내점", "class":"hollys", "area":"은평구", "lat":37.617136, "lng":126.919693, "contact":"02-388-3977", "address":"서울시 은평구 연서로 212 1,2,3층", "time": ""},
  "할리스 건대일감호수점": { "name":"할리스 건대일감호수점", "class":"hollys", "area":"광진구", "lat":37.539161, "lng":127.075555, "contact":"02-456-6627", "address":"서울시 광진구 아차산로39길 38-6 1,2,3,4층", "time":"학기중 : 24시간 방학중 : 08:00 ~ 23:00"},
  "할리스 안암오거리점": { "name":"할리스 안암오거리점", "class":"hollys", "area":"성북구", "lat":37.583626, "lng":127.0293, "contact":"02-922-2877", "address":"서울시 성북구 안암동5가 104-121", "time":"학기중 24시간 운영 방학중 8:00~ 24:00"},
  "할리스 노원문화의거리점": { "name":"할리스 노원문화의거리점", "class":"hollys", "area":"노원구", "lat":37.655852, "lng":127.063961, "contact":"02-935-8231", "address":"서울시 노원구 상계동 332-1", "time": ""},
  "할리스 도곡점": { "name":"할리스 도곡점", "class":"hollys", "area":"강남구", "lat":37.484489, "lng":127.046183, "contact":"02-6204-3311", "address":"서울특별시 강남구 논현로28길 54", "time": "일~목 : 07:00~02:00 금,토 : 24시간"},
  "할리스 신림고시촌점": { "name":"할리스 신림고시촌점", "class":"hollys", "area":"관악구", "lat":37.47135, "lng":126.933597, "contact":"02-871-0777", "address":"서울시 관악구 신림동 1513-2", "time": ""},
  "할리스 강남역점": { "name":"할리스 강남역점", "class":"hollys", "area":"강남구", "lat":37.498733, "lng":127.027808, "contact":"02-555-0890", "address":"서울시 강남구 강남대로 402 시계탑빌딩 1층", "time": ""},
  "할리스 약수역점": { "name":"할리스 약수역점", "class":"hollys", "area":"중구", "lat":37.553932, "lng":127.01041, "contact":"02-2233-0866", "address":"서울시 중구 다산로 114", "time": ""},
  "할리스 신림사거리점": { "name":"할리스 신림사거리점", "class":"hollys", "area":"관악구", "lat":37.484441, "lng":126.928255, "contact":"02-877-1433", "address":"서울시 관악구 신림동 1433-51", "time": ""},
  "할리스 세종로점": { "name":"할리스 세종로점", "class":"hollys", "area":"종로구", "lat":37.570665, "lng":126.976292, "contact":"02-720-5582", "address":"서울시 종로구 세종대로 161 (세종로 200 2,3층)", "time": ""},
  "할리스 합정역점": { "name":"할리스 합정역점", "class":"hollys", "area":"마포구", "lat":37.548472, "lng":126.913286, "contact":"02-6204-1234", "address":"서울시 마포구 양화로 36", "time": ""},
  "할리스 동대문역사문화공원점": { "name":"할리스 동대문역사문화공원점", "class":"hollys", "area":"중구", "lat":37.567135, "lng":127.008043, "contact":"02-2272-3331", "address":"서울시 중구 을지로6가 18-134번지 2,3층", "time": ""},
  "할리스 이태원점": { "name":"할리스 이태원점", "class":"hollys", "area":"용산구", "lat":37.53473, "lng":126.994128, "contact":"02-749-7803", "address":"서울시 용산구 이태원로 179 해밀턴 관광호텔", "time": ""},
  "할리스 노량진역점": { "name":"할리스 노량진역점", "class":"hollys", "area":"동작구", "lat":37.513906, "lng":126.943319, "contact":"02-827-0280", "address":"서울시 동작구 노량진동 67-9", "time": ""},
  "할리스 뱅뱅사거리점": { "name":"할리스 뱅뱅사거리점", "class":"hollys", "area":"강남구", "lat":37.491815, "lng":127.031034, "contact":"02-555-2420", "address":"서울시 강남구 역삼동 832-7 황화빌딩 1층", "time":"월~금 : 24H , 토 : 08:00 ~ 23:00 일 : 09:00~23:00"},
  "할리스 센트럴시티점": { "name":"할리스 센트럴시티점", "class":"hollys", "area":"서초구", "lat":37.50413, "lng":127.003069, "contact":"02-6282-5522", "address":"서울시 서초구 신반포로 176, 1층 118호", "time": ""},
  "할리스 신림점": { "name":"할리스 신림점", "class":"hollys", "area":"관악구", "lat":37.485913, "lng":126.929228, "contact":"02-877-0019", "address":"서울시 관악구 신림동 1432-72번지", "time": ""},
  "할리스 서울대사거리점": { "name":"할리스 서울대사거리점", "class":"hollys", "area":"관악구", "lat":37.480465, "lng":126.952947, "contact":"02-877-6070", "address":"서울시 관악구 봉천동 857-4, 2층", "time": ""},
  "할리스 굽은다리역점": { "name":"할리스 굽은다리역점", "class":"hollys", "area":"강동구", "lat":37.547643, "lng":127.143, "contact":"02-488-5077", "address":"서울시 강동구 천호동 31-2번지", "time": ""},
  "할리스 아시아선수촌점": { "name":"할리스 아시아선수촌점", "class":"hollys", "area":"송파구", "lat":37.506995, "lng":127.079758, "contact":"02-412-3260", "address":"서울시 송파구 잠실동 222-4", "time": ""},
  "할리스 신논현역점": { "name":"할리스 신논현역점", "class":"hollys", "area":"강남구", "lat":37.505068, "lng":127.024656, "contact":"02-545-6077", "address":"서울시 강남구 논현동 200번지 제우빌딩 2층", "time": ""},
  "할리스 건대입구점": { "name":"할리스 건대입구점", "class":"hollys", "area":"광진구", "lat":37.540574, "lng":127.069499, "contact":"02-463-1983", "address":"서울시 광진구 화양동 7-12번지", "time": ""},
  "할리스 천호로데오점": { "name":"할리스 천호로데오점", "class":"hollys", "area":"강동구", "lat":37.53938, "lng":127.126978, "contact":"02-6425-5147", "address":"서울시 강동구 천호동 414 두산위브 센티움103-104호", "time": ""},
  "할리스 신촌점": { "name":"할리스 신촌점", "class":"hollys", "area":"서대문구", "lat":37.558574, "lng":126.937149, "contact":"02-393-2004", "address":"서울시 서대문구 창천동 31-12", "time": ""},
  "탐앤탐스 강변역점": { "name":"탐앤탐스 강변역점", "class":"tomntoms", "area":"광진구", "lat":37.535315, "lng":127.093391, "contact":"02-455-5234", "address":"서울시 광진구 강변역로4길 10  [1층]", "time": ""},
  "탐앤탐스 강서구청사거리점": { "name":"탐앤탐스 강서구청사거리점", "class":"tomntoms", "area":"강서구", "lat":37.556697, "lng":126.851578, "contact":"02-3661-9890", "address":"서울시 강서구 공항대로 395 기도산업사옥\t[1층]", "time": ""},
  "탐앤탐스 강서구청점": { "name":"탐앤탐스 강서구청점", "class":"tomntoms", "area":"강서구", "lat":37.553398, "lng":126.850538, "contact":"02-2699-4565", "address":"서울시 강서구 화곡로 329 [1층]", "time": ""},
  "탐앤탐스 건대점": { "name":"탐앤탐스 건대점", "class":"tomntoms", "area":"광진구", "lat":37.540725, "lng":127.070448, "contact":"02-464-4565", "address":"서울시 광진구 동일로22길 115(화양동) [2층]", "time": ""},
  "탐앤탐스 고대점": { "name":"탐앤탐스 고대점", "class":"tomntoms", "area":"성북구", "lat":37.583294, "lng":127.029604, "contact":"02-925-4565", "address":"서울시 성북구 인촌로24길 63 [B1~3층]", "time": ""},
  "탐앤탐스 공릉점": { "name":"탐앤탐스 공릉점", "class":"tomntoms", "area":"노원구", "lat":37.626482, "lng":127.074614, "contact":"02-979-4565", "address":"서울시 노원구 동일로 192길 31 1,2층", "time": ""},
  "탐앤탐스 길동사거리점": { "name":"탐앤탐스 길동사거리점", "class":"tomntoms", "area":"강동구", "lat":37.534569, "lng":127.138113, "contact":"02-471-1414", "address":"서울시 강동구 천호대로 1139 1층", "time": ""},
  "탐앤탐스 낙성대역점": { "name":"탐앤탐스 낙성대역점", "class":"tomntoms", "area":"관악구", "lat":37.478122, "lng":126.959382, "contact":"02-876-3565", "address":"서울시 관악구 낙성대로 4 1층", "time": ""},
  "탐앤탐스 난곡사거리점": { "name":"탐앤탐스 난곡사거리점", "class":"tomntoms", "area":"관악구", "lat":37.48142, "lng":126.914196, "contact":"02-865-4565", "address":"서울시 관악구 남부순환로 1474 1층", "time": ""},
  "탐앤탐스 노량진점": { "name":"탐앤탐스 노량진점", "class":"tomntoms", "area":"동작구", "lat":37.512873, "lng":126.938664, "contact":"02-824-4565", "address":"서울시 동작구 노량진로 114 탐앤탐스 1층", "time": "07:00~02:00  [ 주말/주일/공휴일 : 목,금,토(24시간 영업) ]"},
  "탐앤탐스 논현1호점": { "name":"탐앤탐스 논현1호점", "class":"tomntoms", "area":"강남구", "lat":37.516962, "lng":127.029649, "contact":"02-546-2948", "address":"서울시 강남구 논현로 726 1층", "time": ""},
  "탐앤탐스 논현점": { "name":"탐앤탐스 논현점", "class":"tomntoms", "area":"강남구", "lat":37.50735, "lng":127.026511, "contact":"02-516-1030", "address":"서울시 강남구 강남대로 118길 43 1-2층", "time": ""},
  "탐앤탐스 논현힐탑점": { "name":"탐앤탐스 논현힐탑점", "class":"tomntoms", "area":"강남구", "lat":37.510185, "lng":127.03287, "contact":"02-512-4565", "address":"서울시 강남구 논현로 634 1-2층", "time": ""},
  "탐앤탐스 목동예술인센터점": { "name":"탐앤탐스 목동예술인센터점", "class":"tomntoms", "area":"양천구", "lat":37.527038, "lng":126.870737, "contact":"02-2655-3360", "address":"서울시 양천구 목동서로 225 예술인회관 1층", "time": ""},
  "탐앤탐스 목동점": { "name":"탐앤탐스 목동점", "class":"tomntoms", "area":"양천구", "lat":37.528153, "lng":126.875746, "contact":"02-796-4556", "address":"서울시 양천구 목동통로 293 현대 41타워 1층", "time": ""},
  "탐앤탐스 문정로데오점": { "name":"탐앤탐스 문정로데오점", "class":"tomntoms", "area":"송파구", "lat":37.49083, "lng":127.125583, "contact":"02-403-4565", "address":"서울시 송파구 동남로 130-1 1-2층", "time": ""},
  "탐앤탐스 반포스타점": { "name":"탐앤탐스 반포스타점", "class":"tomntoms", "area":"서초구", "lat":37.5023, "lng":127.011239, "contact":"02-3476-2600", "address":"서울시 서초구 고무래로 26 쌍동빌딩 1층", "time": ""},
  "탐앤탐스 방배카페골목점": { "name":"탐앤탐스 방배카페골목점", "class":"tomntoms", "area":"서초구", "lat":37.49462, "lng":126.98581, "contact":"02-592-1888", "address":"서울시 서초구 방배중앙로 175 1층", "time": ""},
  "탐앤탐스 방이점": { "name":"탐앤탐스 방이점", "class":"tomntoms", "area":"송파구", "lat":37.514944, "lng":127.108734, "contact":"02-424-0661", "address":"서울시 송파구 오금로 11길 11-8 1층", "time": ""},
  "탐앤탐스 블랙 도산사거리점": { "name":"탐앤탐스 블랙 도산사거리점", "class":"tomntoms", "area":"강남구", "lat":37.520425, "lng":127.03462, "contact":"02-547-4565", "address":"서울시 강남구 언주로 732 1-2층", "time": ""},
  "탐앤탐스 블랙 압구정점": { "name":"탐앤탐스 블랙 압구정점", "class":"tomntoms", "area":"강남구", "lat":37.527825, "lng":127.034774, "contact":"02-517-9890", "address":"서울시 강남구 언주로 172길 11 1층", "time": ""},
  "탐앤탐스 블랙 이태원점": { "name":"탐앤탐스 블랙 이태원점", "class":"tomntoms", "area":"용산구", "lat":37.534165, "lng":126.992702, "contact":"02-796-6640", "address":"서울시 용산구 이태원로 170 2-4층", "time": ""},
  "탐앤탐스 블랙 청계광장점": { "name":"탐앤탐스 블랙 청계광장점", "class":"tomntoms", "area":"중구", "lat":37.568743, "lng":126.978792, "contact":"02-318-3757", "address":"서울시 중구 청계천로 14 1층", "time": ""},
  "탐앤탐스 블랙 청담점": { "name":"탐앤탐스 블랙 청담점", "class":"tomntoms", "area":"강남구", "lat":37.524123, "lng":127.044439, "contact":"02-3442-0232", "address":"서울시 강남구 도산대로 443 1-2층", "time": ""},
  "탐앤탐스 삼성2호점": { "name":"탐앤탐스 삼성2호점", "class":"tomntoms", "area":"강남구", "lat":37.511545, "lng":127.05449, "contact":"02-538-5565", "address":"서울시 강남구 삼성로 560 1층", "time": ""},
  "탐앤탐스 상봉메가박스점": { "name":"탐앤탐스 상봉메가박스점", "class":"tomntoms", "area":"중랑구", "lat":37.593631, "lng":127.075979, "contact":"02-434-4565", "address":"서울시 중랑구 망우로 210 2-3층", "time": ""},
  "탐앤탐스 서울대입구점": { "name":"탐앤탐스 서울대입구점", "class":"tomntoms", "area":"관악구", "lat":37.480669, "lng":126.952239, "contact":"02-878-5565", "address":"서울시 관악구 관악로 173 2-3층", "time": ""},
  "탐앤탐스 선릉점": { "name":"탐앤탐스 선릉점", "class":"tomntoms", "area":"강남구", "lat":37.504128, "lng":127.052031, "contact":"02-538-7890", "address":"서울시 강남구 선릉로86길 31 1층", "time": ""},
  "탐앤탐스 성대입구점": { "name":"탐앤탐스 성대입구점", "class":"tomntoms", "area":"종로구", "lat":37.58271, "lng":126.998095, "contact":"02-745-4565", "address":"서울시 종로구 창경궁로 231-2 1-2층", "time": ""},
  "탐앤탐스 성신여대점": { "name":"탐앤탐스 성신여대점", "class":"tomntoms", "area":"성북구", "lat":37.592339, "lng":127.017817, "contact":"02-923-4565", "address":"서울시 성북구 동소문로22길 15 2-3층", "time": ""},
  "탐앤탐스 수유역점": { "name":"탐앤탐스 수유역점", "class":"tomntoms", "area":"강북구", "lat":37.637751, "lng":127.026117, "contact":"02-999-4565", "address":"서울시 강북구 오패산로 416 2-3층", "time": ""},
  "탐앤탐스 신사역점": { "name":"탐앤탐스 신사역점", "class":"tomntoms", "area":"강남구", "lat":37.514983, "lng":127.020339, "contact":"02-543-3242", "address":"서울시 강남구 강남대로 596 극동IND빌딩 1층", "time": ""},
  "탐앤탐스 신천역점": { "name":"탐앤탐스 신천역점", "class":"tomntoms", "area":"송파구", "lat":37.51103, "lng":127.083077, "contact":"02-420-4565", "address":"서울시 송파구 올림픽로 12길 5(잠실동) 정호빌딩 2-3층", "time": ""},
  "탐앤탐스 신촌로터리점": { "name":"탐앤탐스 신촌로터리점", "class":"tomntoms", "area":"서대문구", "lat":37.555823, "lng":126.937935, "contact":"02-364-4565", "address":"서울시 서대문구 신촌로 109 1-2층", "time": ""},
  "탐앤탐스 신촌점": { "name":"탐앤탐스 신촌점", "class":"tomntoms", "area":"서대문구", "lat":37.558702, "lng":126.938661, "contact":"02-392-5630", "address":"서울시 서대문구 명물길 43 1-4층", "time": ""},
  "탐앤탐스 압구정WEST점": { "name":"탐앤탐스 압구정WEST점", "class":"tomntoms", "area":"강남구", "lat":37.527652, "lng":127.023632, "contact":"02-545-2948", "address":"서울시 강남구 신사동 압구정로 112 1층", "time": ""},
  "탐앤탐스 압구정로데오점": { "name":"탐앤탐스 압구정로데오점", "class":"tomntoms", "area":"강남구", "lat":37.525533, "lng":127.039366, "contact":"02-542-5517", "address":"서울시 강남구 선릉로 823 한양타운 1층", "time": ""},
  "탐앤탐스 어린이대공원점": { "name":"탐앤탐스 어린이대공원점", "class":"tomntoms", "area":"광진구", "lat":37.548039, "lng":127.072479, "contact":"02-2205-4565", "address":"서울시 광진구 광나루로 383 1-2층", "time": ""},
  "탐앤탐스 언주로점": { "name":"탐앤탐스 언주로점", "class":"tomntoms", "area":"강남구", "lat":37.505478, "lng":127.040649, "contact":"070-8283-6145", "address":"서울시 강남구 언주로97길 8 창해에탄올사옥 1층", "time": ""},
  "탐앤탐스 여의도KBS점": { "name":"탐앤탐스 여의도KBS점", "class":"tomntoms", "area":"영등포구", "lat":37.518859, "lng":126.930763, "contact":"02-785-4565", "address":"서울시 영등포구 여의대방로375 아일렉스타워 1-2층", "time": ""},
  "탐앤탐스 역삼2호점": { "name":"탐앤탐스 역삼2호점", "class":"tomntoms", "area":"강남구", "lat":37.495432, "lng":127.039797, "contact":"02-3452-4565", "address":"서울시 강남구 논현로 338 정암빌딩 1층", "time": ""},
  "탐앤탐스 영등포시장역점": { "name":"탐앤탐스 영등포시장역점", "class":"tomntoms", "area":"영등포구", "lat":37.521256, "lng":126.905291, "contact":"02-2636-4565", "address":"서울시 영등포구 영중로 58 1층", "time": ""},
  "탐앤탐스 영등포역점": { "name":"탐앤탐스 영등포역점", "class":"tomntoms", "area":"영등포구", "lat":37.516836, "lng":126.907254, "contact":"02-2675-4565", "address":"서울시 영등포구 경인로 851-1 1층", "time": ""},
  "탐앤탐스 장안1호점": { "name":"탐앤탐스 장안1호점", "class":"tomntoms", "area":"동대문구", "lat":37.568405, "lng":127.068778, "contact":"02-2243-4560", "address":"서울시 동대문구 장한로 85 1층", "time":"[ 주말/주일/공휴일 : 토00:00~24:00, 일07:00~23:00 ]"},
  "탐앤탐스 종로본점": { "name":"탐앤탐스 종로본점", "class":"tomntoms", "area":"종로구", "lat":37.569786, "lng":126.986702, "contact":"02-725-4565", "address":"서울시 종로구 관철동 종로14길 4 우마관빌딩 2층", "time": ""},
  "탐앤탐스 차병원사거리점": { "name":"탐앤탐스 차병원사거리점", "class":"tomntoms", "area":"강남구", "lat":37.505587, "lng":127.034296, "contact":"02-2051-9980", "address":"서울시 강남구 논현로 555 1층", "time": ""},
  "탐앤탐스 천호로데오점": { "name":"탐앤탐스 천호로데오점", "class":"tomntoms", "area":"강동구", "lat":37.538365, "lng":127.126781, "contact":"02-485-4565", "address":"서울시 강동구 천호동 천호대로 157길 11 2층", "time": ""},
  "탐앤탐스 청담1호점": { "name":"탐앤탐스 청담1호점", "class":"tomntoms", "area":"강남구", "lat":37.524469, "lng":127.053224, "contact":"02-543-4565", "address":"서울시 강남구 도산대로 544 1층", "time": ""},
  "탐앤탐스 청담2호점": { "name":"탐앤탐스 청담2호점", "class":"tomntoms", "area":"강남구", "lat":37.521573, "lng":127.037287, "contact":"02-541-2630", "address":"서울시 강남구 도산대로 50길 12 1층", "time": ""},
  "탐앤탐스 청담제이제이점": { "name":"탐앤탐스 청담제이제이점", "class":"tomntoms", "area":"강남구", "lat":37.524487, "lng":127.038925, "contact":"02-548-8565", "address":"서울시 강남구 선릉로153길 5 보성빌딩 1층", "time": ""},
  "탐앤탐스 탐스커버리 강남점": { "name":"탐앤탐스 탐스커버리 강남점", "class":"tomntoms", "area":"강남구", "lat":37.50338, "lng":127.025443, "contact":"02-552-2010", "address":"서울시 강남구 강남대로 458 2층", "time": ""},
  "탐앤탐스 탐스커버리 건대점": { "name":"탐앤탐스 탐스커버리 건대점", "class":"tomntoms", "area":"광진구", "lat":37.53995, "lng":127.06934, "contact":"02-465-4565", "address":"서울시 광진구 아차산로 236 1-3층", "time": ""},
  "탐앤탐스 탐스커버리 광진화양점": { "name":"탐앤탐스 탐스커버리 광진화양점", "class":"tomntoms", "area":"광진구", "lat":37.543184, "lng":127.070773, "contact":"02-497-4565", "address":"서울시 광진구 능동로13길 26 4층", "time": ""},
  "탐앤탐스 탐스커버리 금천본점": { "name":"탐앤탐스 탐스커버리 금천본점", "class":"tomntoms", "area":"금천구", "lat":37.469136, "lng":126.898491, "contact":"02-863-4565", "address":"서울시 금천구 시흥대로 398 1-2층", "time": ""},
  "탐앤탐스 탐스커버리 도산로점": { "name":"탐앤탐스 탐스커버리 도산로점", "class":"tomntoms", "area":"강남구", "lat":37.521748, "lng":127.031129, "contact":"02-544-8990", "address":"서울시 강남구 논현로152길 37 1-2층", "time": ""},
  "탐앤탐스 탐스커버리 청담점": { "name":"탐앤탐스 탐스커버리 청담점", "class":"tomntoms", "area":"강남구", "lat":37.525009, "lng":127.050199, "contact":"02-511-5090", "address":"서울시 강남구 도산대로89길 3 1층", "time": ""},
  "탐앤탐스 탐스퀘어 영등포점": { "name":"탐앤탐스 탐스퀘어 영등포점", "class":"tomntoms", "area":"영등포구", "lat":37.518355, "lng":126.905268, "contact":"02-2634-5565", "address":"서울시 영등포구 영중로 21 1-3층", "time": ""},
  "탐앤탐스 티티클럽노원": { "name":"탐앤탐스 티티클럽노원", "class":"tomntoms", "area":"노원구", "lat":37.655372, "lng":127.063884, "contact":"02-950-0479", "address":"서울시 노원구 노해로 507 1층", "time": ""},
  "탐앤탐스 한남점": { "name":"탐앤탐스 한남점", "class":"tomntoms", "area":"용산구", "lat":37.53378, "lng":127.006139, "contact":"02-793-4565", "address":"서울시 용산구 한남대로21길 24 1-2층", "time": ""},
  "탐앤탐스 한양대점": { "name":"탐앤탐스 한양대점", "class":"tomntoms", "area":"성동구", "lat":37.55732, "lng":127.041763, "contact":"02-2292-4565", "address":"서울시 성동구 왕십리로 229 2-3층", "time": ""},
  "탐앤탐스 홍대아트점": { "name":"탐앤탐스 홍대아트점", "class":"tomntoms", "area":"마포구", "lat":37.553775, "lng":126.928108, "contact":"02-332-3500", "address":"서울시 마포구 와우산로 133 1층", "time": ""},
  "탐앤탐스 홍대파크점": { "name":"탐앤탐스 홍대파크점", "class":"tomntoms", "area":"마포구", "lat":37.550859, "lng":126.921445, "contact":"02-324-4565", "address":"서울시 마포구 잔다리로 16 2-4층", "time": ""},
  "탐앤탐스 화곡역점": { "name":"탐앤탐스 화곡역점", "class":"tomntoms", "area":"강서구", "lat":37.541618, "lng":126.841142, "contact":"02-2696-4565", "address":"서울시 강서구 화곡로 176-4 1-2층", "time": ""},
  "탐앤탐스 화랑대사거리점": { "name":"탐앤탐스 화랑대사거리점", "class":"tomntoms", "area":"노원구", "lat":37.621882, "lng":127.086575, "contact":"02-973-5000", "address":"서울시 노원구 노원로 3 우토파크프라자 B1층", "time": ""},
  "탐앤탐스 DMC 탐스커버리점": { "name":"탐앤탐스 DMC 탐스커버리점", "class":"tomntoms", "area":"은평구", "lat":37.583611, "lng":126.893274, "contact":"02-6925-0108", "address":"서울시 은평구 수색로 195", "time": ""},
  "탐앤탐스 가로수길점": { "name":"탐앤탐스 가로수길점", "class":"tomntoms", "area":"강남구", "lat":37.518987, "lng":127.02276, "contact":"02-545-5789", "address":"서울시 강남구 강남대로156길48(신사동) [1.2층]", "time": ""},
  "탐앤탐스 강남구청역사거리점": { "name":"탐앤탐스 강남구청역사거리점", "class":"tomntoms", "area":"강남구", "lat":37.517614, "lng":127.039639, "contact":"02-516-4565", "address":"서울시 강남구 선릉로131길16(논현동) [1층]", "time": ""},
  "탐앤탐스 강남바로세움점": { "name":"탐앤탐스 강남바로세움점", "class":"tomntoms", "area":"서초구", "lat":37.501975, "lng":127.024447, "contact":"02-532-0620", "address":"서울시 서초구 서초대로77길 55 [1층]", "time": "07:00~02:00 [ 주말/주일/공휴일 : 00:00~24:00 ]"},
  "탐앤탐스 강남역사거리점": { "name":"탐앤탐스 강남역사거리점", "class":"tomntoms", "area":"서초구", "lat":37.499378, "lng":127.025809, "contact":"02-533-2211", "address":"서울시 서초구 서초대로77길 19 [1,2층]", "time": ""},
  "엔젤리너스 건대역": { "name":"엔젤리너스 건대역", "class":"angelinus", "area":"광진구", "lat":37.540272, "lng":127.070494, "contact":"02-463-1525", "address":"서울시 광진구 능동로 103", "time": ""},
  "엔젤리너스 서울시립대": { "name":"엔젤리너스 서울시립대", "class":"angelinus", "area":"동대문구", "lat":37.583471, "lng":127.053223, "contact":"02-2245-1001", "address":"서울시 동대문구 전농로217", "time": ""},
  "엔젤리너스 이수역": { "name":"엔젤리너스 이수역", "class":"angelinus", "area":"동작구", "lat":37.486297, "lng":126.980918, "contact":"02-595-2934", "address":"서울시 동작구 동작대로 25길 16", "time": ""},
  "엔젤리너스 구로디지털역": { "name":"엔젤리너스 구로디지털역", "class":"angelinus", "area":"관악구", "lat":37.483854, "lng":126.902803, "contact":"02-869-8564", "address":"서울시 관악구 시흥대로 572", "time": ""},
  "엔젤리너스 연신내역": { "name":"엔젤리너스 연신내역", "class":"angelinus", "area":"은평구", "lat":37.618389, "lng":126.920521, "contact":"02-389-9323", "address":"서울시 은평구 연서로 226-1", "time": ""},
  "엔젤리너스 영등포": { "name":"엔젤리너스 영등포", "class":"angelinus", "area":"영등포구", "lat":37.516929, "lng":126.906641, "contact":"02-2069-2286", "address":"서울시 영등포구 영등포동3가 10-16", "time": ""},
  "엔젤리너스 대학로": { "name":"엔젤리너스 대학로", "class":"angelinus", "area":"종로구", "lat":37.582543, "lng":127.00149, "contact":"02-3675-8191", "address":"서울시 종로구 대학로 127", "time": ""},
  "엔젤리너스 강남역사거리": { "name":"엔젤리너스 강남역사거리", "class":"angelinus", "area":"강남구", "lat":37.498443, "lng":127.030518, "contact":"02-3453-4172", "address":"서울시 강남구 테헤란로 116", "time": ""},
  "엔젤리너스 불광역": { "name":"엔젤리너스 불광역", "class":"angelinus", "area":"은평구", "lat":37.611331, "lng":126.928512, "contact":"02-389-9571", "address":"서울시 은평구 대조동 6-5번지 신흥빌딩 1층", "time": ""},
  "엔젤리너스 노원역": { "name":"엔젤리너스 노원역", "class":"angelinus", "area":"노원구", "lat":37.655074, "lng":127.063083, "contact":"02-933-0550", "address":"서울시 노원구 노해로 495", "time": ""},
  "엔젤리너스 수유역": { "name":"엔젤리너스 수유역", "class":"angelinus", "area":"강북구", "lat":37.63784, "lng":127.025032, "contact":"02-994-8556", "address":"서울시 강북구 도봉로 333", "time": ""},
  "엔젤리너스 석촌호수": { "name":"엔젤리너스 석촌호수D/I", "class":"angelinus", "area":"송파구", "lat":37.507093, "lng":127.101891, "contact":"02-3431-7590", "address":"서울시 송파구 석촌호수로 224", "time": ""},
  "엔젤리너스 홍대역": { "name":"엔젤리너스 홍대역", "class":"angelinus", "area":"마포구", "lat":37.55498, "lng":126.922095, "contact":"02-3143-7521", "address":"서울시 마포구 양화로 140", "time": ""},
  "엔젤리너스 강남역": { "name":"엔젤리너스 강남역", "class":"angelinus", "area":"서초구", "lat":37.499983, "lng":127.02598, "contact":"02-3478-9091", "address":"서울시 서초구 서초대로 77길 24", "time": ""},
  "커피스미스 이태원점": { "name":"커피스미스 이태원점", "class":"coffeesmith", "area":"용산구", "lat":37.534568, "lng":126.990991, "contact":"02-797-6740", "address":"서울시 용산구 이태원로 153, 2층", "time":"월~목,일 9:00-02:00, 금토 9:00-08:00(24시간 영업)"},
  "커피스미스 신논현점": { "name":"커피스미스 신논현점", "class":"coffeesmith", "area":"강남구", "lat":37.507395, "lng":127.026657, "contact":"02-546-7727", "address":"서울시 강남구 논현동 181-9", "time": ""}
}
